[
    {
        "name": "RBANM's High School",
        "coordinates": {
            "latitude": 12.9812647,
            "longitude": 77.6128771
        }
    },
    {
        "name": "VIBGYOR High, Marathahalli | CISCE School",
        "coordinates": {
            "latitude": 12.948474,
            "longitude": 77.7189647
        }
    },
    {
        "name": "National Public School",
        "coordinates": {
            "latitude": 12.9696214,
            "longitude": 77.6467447
        }
    },
    {
        "name": "National Public School",
        "coordinates": {
            "latitude": 12.9490812,
            "longitude": 77.6209241
        }
    },
    {
        "name": "Ryan International School, Kundalahalli, Bangalore - ICSE",
        "coordinates": {
            "latitude": 12.9643357,
            "longitude": 77.7249723
        }
    },
    {
        "name": "NANDU HOSPITALITY - AASHIYANA",
        "coordinates": {
            "latitude": 13.0491893,
            "longitude": 77.6046668
        }
    },
    {
        "name": "St. Joseph's Boys' High School",
        "coordinates": {
            "latitude": 12.9720705,
            "longitude": 77.6037037
        }
    },
    {
        "name": "New Horizon Public School",
        "coordinates": {
            "latitude": 12.9675847,
            "longitude": 77.6419487
        }
    },
    {
        "name": "Sri Chaitanya Techno School",
        "coordinates": {
            "latitude": 13.0195456,
            "longitude": 77.6732862
        }
    },
    {
        "name": "Kensri School",
        "coordinates": {
            "latitude": 13.049655,
            "longitude": 77.6148462
        }
    },
    {
        "name": "Legacy School",
        "coordinates": {
            "latitude": 13.0633262,
            "longitude": 77.6520639
        }
    },
    {
        "name": "Ekya School ITPL",
        "coordinates": {
            "latitude": 12.9715496,
            "longitude": 77.704302
        }
    },
    {
        "name": "Gopalan National School",
        "coordinates": {
            "latitude": 12.986127,
            "longitude": 77.707586
        }
    },
    {
        "name": "Vidya Niketan School",
        "coordinates": {
            "latitude": 13.0475813,
            "longitude": 77.5967682
        }
    },
    {
        "name": "Vagdevi Vilas School Marathahalli",
        "coordinates": {
            "latitude": 12.9442791,
            "longitude": 77.7099741
        }
    },
    {
        "name": "EuroKids Pre-School I Best Preschool in Koramangala Bangalore",
        "coordinates": {
            "latitude": 12.935129,
            "longitude": 77.621419
        }
    },
    {
        "name": "Baldwin Boys' High School Richmond Town - ICSE | CBSE School in Richmond Town, Bangalore",
        "coordinates": {
            "latitude": 12.962258,
            "longitude": 77.606048
        }
    },
    {
        "name": "Bethany High School - ICSE Schools in Bangalore",
        "coordinates": {
            "latitude": 12.9406862,
            "longitude": 77.6208596
        }
    },
    {
        "name": "Baldwin Girls' High School",
        "coordinates": {
            "latitude": 12.9644704,
            "longitude": 77.6005275
        }
    },
    {
        "name": "Bishop Cotton Girls' School",
        "coordinates": {
            "latitude": 12.9700371,
            "longitude": 77.6016916
        }
    },
    {
        "name": "Jyothy Kendriya Vidyalaya",
        "coordinates": {
            "latitude": 12.8949506,
            "longitude": 77.5703728
        }
    },
    {
        "name": "Hello Kids rose International preschool Daycare Summer Camp NTT Nobonagar Branch",
        "coordinates": {
            "latitude": 12.8669899,
            "longitude": 77.595644
        }
    },
    {
        "name": "Stammering Cure Centre",
        "coordinates": {
            "latitude": 12.9133371,
            "longitude": 77.5866264
        }
    },
    {
        "name": "The Samhita Academy",
        "coordinates": {
            "latitude": 12.8187448,
            "longitude": 77.6012398
        }
    },
    {
        "name": "DAV Public School",
        "coordinates": {
            "latitude": 12.8010781,
            "longitude": 77.5012728
        }
    },
    {
        "name": "EuroKids Pre-School Jayanagar, Best Kindergarten in Bengalore",
        "coordinates": {
            "latitude": 12.9210378,
            "longitude": 77.5813376
        }
    },
    {
        "name": "Ekya School JP Nagar",
        "coordinates": {
            "latitude": 12.907795,
            "longitude": 77.596938
        }
    },
    {
        "name": "Mitra Academy",
        "coordinates": {
            "latitude": 12.8876577,
            "longitude": 77.5992912
        }
    },
    {
        "name": "Everonn Systems India Limited",
        "coordinates": {
            "latitude": 12.9319151,
            "longitude": 77.5833571
        }
    },
    {
        "name": "Podar Jumbo Kids Plus Preschool JP Nagar 7th Phase, Bangalore | Best Preschool in JP Nagar 7th Phase",
        "coordinates": {
            "latitude": 12.885865,
            "longitude": 77.5824207
        }
    },
    {
        "name": "Sanjay's Dance Company",
        "coordinates": {
            "latitude": 12.9167234,
            "longitude": 77.5898958
        }
    },
    {
        "name": "Bachpan Play School, Gaurava Nagar",
        "coordinates": {
            "latitude": 12.8841441,
            "longitude": 77.5820146
        }
    },
    {
        "name": "Swarna Jyothi Training Center",
        "coordinates": {
            "latitude": 12.9204223,
            "longitude": 77.5544555
        }
    },
    {
        "name": "Bangalore Preschools",
        "coordinates": {
            "latitude": 12.9030164,
            "longitude": 77.5849759
        }
    },
    {
        "name": "Natyanjali School of Dance",
        "coordinates": {
            "latitude": 12.8980392,
            "longitude": 77.5846762
        }
    },
    {
        "name": "Tapas Progressive Educational Institution",
        "coordinates": {
            "latitude": 12.8749608,
            "longitude": 77.5366076
        }
    },
    {
        "name": "The Happy Valley School, Uttarahalli, Bangalore",
        "coordinates": {
            "latitude": 12.902946,
            "longitude": 77.5338863
        }
    },
    {
        "name": "Kidzee Arekere",
        "coordinates": {
            "latitude": 12.8829418,
            "longitude": 77.6103911
        }
    },
    {
        "name": "Eduland Foundation",
        "coordinates": {
            "latitude": 12.9385183,
            "longitude": 77.5499641
        }
    },
    {
        "name": "New Millennium Public School",
        "coordinates": {
            "latitude": 12.9041709,
            "longitude": 77.5444838
        }
    },
    {
        "name": "Canadian International School",
        "coordinates": {
            "latitude": 13.1189911,
            "longitude": 77.5951035
        }
    },
    {
        "name": "Trio World Academy",
        "coordinates": {
            "latitude": 13.0587345,
            "longitude": 77.5833838
        }
    },
    {
        "name": "Academy of Excellence",
        "coordinates": {
            "latitude": 13.0195362,
            "longitude": 77.6459177
        }
    },
    {
        "name": "Mars Adventures",
        "coordinates": {
            "latitude": 13.0318054,
            "longitude": 77.6807102
        }
    },
    {
        "name": "Bubbles Centre for Autism",
        "coordinates": {
            "latitude": 13.050986,
            "longitude": 77.6708052
        }
    },
    {
        "name": "The OrangeKids Preschool",
        "coordinates": {
            "latitude": 13.0582437,
            "longitude": 77.6529155
        }
    },
    {
        "name": "Oxford School and Composite PU College",
        "coordinates": {
            "latitude": 13.1040317,
            "longitude": 77.6235389
        }
    },
    {
        "name": "Manasa Light Age Foundation",
        "coordinates": {
            "latitude": 13.0798468,
            "longitude": 77.6665371
        }
    },
    {
        "name": "Swami Vivekananda Yoga Centre",
        "coordinates": {
            "latitude": 13.0229947,
            "longitude": 77.6420613
        }
    },
    {
        "name": "YuvaLok Riha Community School",
        "coordinates": {
            "latitude": 13.035628,
            "longitude": 77.645669
        }
    },
    {
        "name": "Apple Kids",
        "coordinates": {
            "latitude": 13.0247301,
            "longitude": 77.6555333
        }
    },
    {
        "name": "Haadee Fitness Floor",
        "coordinates": {
            "latitude": 13.0208263,
            "longitude": 77.6475421
        }
    },
    {
        "name": "Jaigopal Garodia Rashtrotthana Vidyalaya",
        "coordinates": {
            "latitude": 13.0178945,
            "longitude": 77.6491106
        }
    },
    {
        "name": "Bangalore International School",
        "coordinates": {
            "latitude": 13.0474777,
            "longitude": 77.6467162
        }
    },
    {
        "name": "CITADELKIDS - Horamavu",
        "coordinates": {
            "latitude": 13.0219625,
            "longitude": 77.6558825
        }
    },
    {
        "name": "The Deens Academy",
        "coordinates": {
            "latitude": 12.9760078,
            "longitude": 77.7419313
        }
    },
    {
        "name": "Just4Kids Play School",
        "coordinates": {
            "latitude": 13.0157334,
            "longitude": 77.7623358
        }
    },
    {
        "name": "EuroKids Pre-School Seegehalli",
        "coordinates": {
            "latitude": 13.0168599,
            "longitude": 77.7595361
        }
    },
    {
        "name": "Sastha Pools Swimming Academy",
        "coordinates": {
            "latitude": 12.9831034,
            "longitude": 77.7743842
        }
    },
    {
        "name": "Kumon Maths & English Class: Best Kids Learning Centre In Whitefield Main Road",
        "coordinates": {
            "latitude": 12.9721721,
            "longitude": 77.7506093
        }
    },
    {
        "name": "Pratham International School",
        "coordinates": {
            "latitude": 12.9484042,
            "longitude": 77.7690903
        }
    },
    {
        "name": "Bloomers School",
        "coordinates": {
            "latitude": 12.9814001,
            "longitude": 77.7672513
        }
    },
    {
        "name": "Building Blocks Daisy",
        "coordinates": {
            "latitude": 12.9764371,
            "longitude": 77.7577376
        }
    },
    {
        "name": "GHPS Bodhana Hosahalli",
        "coordinates": {
            "latitude": 12.9779207,
            "longitude": 77.8023169
        }
    },
    {
        "name": "Government Higher Primary School Chikkathaggali",
        "coordinates": {
            "latitude": 12.9793632,
            "longitude": 77.7939763
        }
    },
    {
        "name": "Krish School",
        "coordinates": {
            "latitude": 12.9834906,
            "longitude": 77.7834077
        }
    },
    {
        "name": "Shri Ram Global School, Whitefield, Bangalore",
        "coordinates": {
            "latitude": 12.9677655,
            "longitude": 77.79693
        }
    },
    {
        "name": "Government Lower Primary School Mallasandra",
        "coordinates": {
            "latitude": 13.0083372,
            "longitude": 77.7834671
        }
    },
    {
        "name": "DPS Whitefield Mallasandra",
        "coordinates": {
            "latitude": 13.0120782,
            "longitude": 77.7808823
        }
    },
    {
        "name": "Government Lower Primary School Devashettyhalli",
        "coordinates": {
            "latitude": 13.0231228,
            "longitude": 77.8214836
        }
    },
    {
        "name": "SGV School",
        "coordinates": {
            "latitude": 12.9962016,
            "longitude": 77.7692578
        }
    },
    {
        "name": "closed",
        "coordinates": {
            "latitude": 12.9631854,
            "longitude": 77.7469526
        }
    },
    {
        "name": "Govt Primary School",
        "coordinates": {
            "latitude": 12.975219,
            "longitude": 77.7718012
        }
    },
    {
        "name": "Kidzee, Channasandra, Kadugodi, Whitefield, Bangalore",
        "coordinates": {
            "latitude": 12.9802324,
            "longitude": 77.7690941
        }
    },
    {
        "name": "Mom n mom child care",
        "coordinates": {
            "latitude": 12.9055181,
            "longitude": 77.4717923
        }
    },
    {
        "name": "St. Clare Convent School",
        "coordinates": {
            "latitude": 12.8780608,
            "longitude": 77.4443807
        }
    },
    {
        "name": "EuroKids Kengeri Satellite Town, Best Preschool in Kengeri Satellite Town",
        "coordinates": {
            "latitude": 12.9211908,
            "longitude": 77.4821419
        }
    },
    {
        "name": "Bethel India Mission School",
        "coordinates": {
            "latitude": 12.8778625,
            "longitude": 77.4478514
        }
    },
    {
        "name": "Tattva School",
        "coordinates": {
            "latitude": 12.8758397,
            "longitude": 77.4360297
        }
    },
    {
        "name": "St.Benedict's Academy",
        "coordinates": {
            "latitude": 12.8885657,
            "longitude": 77.4592883
        }
    },
    {
        "name": "Delhi Public School",
        "coordinates": {
            "latitude": 12.8536738,
            "longitude": 77.4526998
        }
    },
    {
        "name": "K.L.E. Basava Residential Girls School & PU College",
        "coordinates": {
            "latitude": 12.8909858,
            "longitude": 77.4697518
        }
    },
    {
        "name": "Hruthvi International School",
        "coordinates": {
            "latitude": 12.8782597,
            "longitude": 77.4814404
        }
    },
    {
        "name": "CHINMAYA VIDYALAYA BANASHANKARI",
        "coordinates": {
            "latitude": 12.8874031,
            "longitude": 77.4871309
        }
    },
    {
        "name": "SUNRISE INTERNATIONAL ACADEMY",
        "coordinates": {
            "latitude": 12.919833,
            "longitude": 77.4618954
        }
    },
    {
        "name": "Vishwa Venkateshwara International School",
        "coordinates": {
            "latitude": 12.9011,
            "longitude": 77.4885049
        }
    },
    {
        "name": "Krishna Chaitanya Residential Special School",
        "coordinates": {
            "latitude": 12.9234251,
            "longitude": 77.4492635
        }
    },
    {
        "name": "ORCHIDS The International School - Kanakapura Road",
        "coordinates": {
            "latitude": 12.8342095,
            "longitude": 77.4929568
        }
    },
    {
        "name": "Tom And Jerry Nursery & Special School - A Unit of JDC SPARSHA Educational Trust",
        "coordinates": {
            "latitude": 12.9021057,
            "longitude": 77.4904857
        }
    },
    {
        "name": "SJB School of Architecture and Planning",
        "coordinates": {
            "latitude": 12.8975336,
            "longitude": 77.4951547
        }
    },
    {
        "name": "Bethesda International School",
        "coordinates": {
            "latitude": 12.9284144,
            "longitude": 77.4864976
        }
    },
    {
        "name": "BGS Public School",
        "coordinates": {
            "latitude": 12.8967241,
            "longitude": 77.4960754
        }
    },
    {
        "name": "Carmel Public School",
        "coordinates": {
            "latitude": 12.9115547,
            "longitude": 77.486207
        }
    },
    {
        "name": "Vishwakosha Gurukula (VKGK)",
        "coordinates": {
            "latitude": 12.9256258,
            "longitude": 77.4625297
        }
    },
    {
        "name": "Vinayaka public school",
        "coordinates": {
            "latitude": 13.1199172,
            "longitude": 77.612128
        }
    },
    {
        "name": "New Excellent English Primary & High School",
        "coordinates": {
            "latitude": 13.1303967,
            "longitude": 77.6660531
        }
    },
    {
        "name": "St. Francis School, Bagalur",
        "coordinates": {
            "latitude": 13.138773,
            "longitude": 77.6812876
        }
    },
    {
        "name": "Jawahar Navodaya Vidyalaya, Bangalore Urban",
        "coordinates": {
            "latitude": 13.1492246,
            "longitude": 77.6738584
        }
    },
    {
        "name": "Government Lower Primary School Majara Hosahalli",
        "coordinates": {
            "latitude": 13.1432822,
            "longitude": 77.6428686
        }
    },
    {
        "name": "Government Higher Primary School Hosahalli",
        "coordinates": {
            "latitude": 13.1432822,
            "longitude": 77.6428686
        }
    },
    {
        "name": "Delhi Public School Bangalore North",
        "coordinates": {
            "latitude": 13.1177704,
            "longitude": 77.6416548
        }
    },
    {
        "name": "Tawakkal International School",
        "coordinates": {
            "latitude": 13.1034412,
            "longitude": 77.6643484
        }
    },
    {
        "name": "Poorna Learning Centre",
        "coordinates": {
            "latitude": 13.1172967,
            "longitude": 77.6385979
        }
    },
    {
        "name": "Akshara Montessori House Of Children",
        "coordinates": {
            "latitude": 13.1140795,
            "longitude": 77.63874
        }
    },
    {
        "name": "Katherine Public School",
        "coordinates": {
            "latitude": 13.1595033,
            "longitude": 77.6383072
        }
    },
    {
        "name": "Government Upper & Lower Primary School Bellahalli",
        "coordinates": {
            "latitude": 13.1004985,
            "longitude": 77.642692
        }
    },
    {
        "name": "Bharathi Public School",
        "coordinates": {
            "latitude": 13.1205508,
            "longitude": 77.6202666
        }
    },
    {
        "name": "Oxford English School",
        "coordinates": {
            "latitude": 13.1537796,
            "longitude": 77.6267624
        }
    },
    {
        "name": "Divine Mercy School - Jeevodaya",
        "coordinates": {
            "latitude": 13.086867,
            "longitude": 77.6612568
        }
    },
    {
        "name": "Government Higher Primary School N Hosahalli",
        "coordinates": {
            "latitude": 13.1332298,
            "longitude": 77.714882
        }
    },
    {
        "name": "Delhi Public School, Bangalore East",
        "coordinates": {
            "latitude": 12.8841094,
            "longitude": 77.7255862
        }
    },
    {
        "name": "Harvest International School",
        "coordinates": {
            "latitude": 12.884045,
            "longitude": 77.710317
        }
    },
    {
        "name": "Greenwood High - Sarjapur",
        "coordinates": {
            "latitude": 12.8995793,
            "longitude": 77.7490609
        }
    },
    {
        "name": "Indus International School Bangalore",
        "coordinates": {
            "latitude": 12.8350171,
            "longitude": 77.7785936
        }
    },
    {
        "name": "Sneha Care Home",
        "coordinates": {
            "latitude": 12.9014836,
            "longitude": 77.7158536
        }
    },
    {
        "name": "Namma Sampradaya Charitable and Education Trust",
        "coordinates": {
            "latitude": 12.9023703,
            "longitude": 77.7634539
        }
    },
    {
        "name": "Mickey & Minnie Play House",
        "coordinates": {
            "latitude": 12.9245882,
            "longitude": 77.7364785
        }
    },
    {
        "name": "Anjana Vidya Kendra HighSchool",
        "coordinates": {
            "latitude": 12.9238544,
            "longitude": 77.8254016
        }
    },
    {
        "name": "Saandeepani Academy For Excellence",
        "coordinates": {
            "latitude": 12.861074,
            "longitude": 77.771112
        }
    },
    {
        "name": "Deens Academy",
        "coordinates": {
            "latitude": 12.9158387,
            "longitude": 77.7616009
        }
    },
    {
        "name": "Shri Sharada Vidya Mandira English Medium (SSVM)School",
        "coordinates": {
            "latitude": 12.9144738,
            "longitude": 77.7534079
        }
    },
    {
        "name": "Divya Jyothi School",
        "coordinates": {
            "latitude": 12.9344117,
            "longitude": 77.7598166
        }
    },
    {
        "name": "Krida Playhome & Daycare",
        "coordinates": {
            "latitude": 12.9349266,
            "longitude": 77.75482
        }
    },
    {
        "name": "The International School Bangalore (TISB)",
        "coordinates": {
            "latitude": 12.8912197,
            "longitude": 77.7501073
        }
    },
    {
        "name": "Kendriya Vidyalaya - Hebbal",
        "coordinates": {
            "latitude": 13.0158466,
            "longitude": 77.5757979
        }
    },
    {
        "name": "ORCHIDS The International School- Jalahalli",
        "coordinates": {
            "latitude": 13.0473451,
            "longitude": 77.544626
        }
    },
    {
        "name": "Kendriya Vidyalaya (Malleshwara)",
        "coordinates": {
            "latitude": 13.0092187,
            "longitude": 77.5687686
        }
    },
    {
        "name": "Sri Sri Ravishankar Vidya Mandir- Best CBSE School in Bangalore North",
        "coordinates": {
            "latitude": 13.0815143,
            "longitude": 77.5581074
        }
    },
    {
        "name": "Banjara Academy",
        "coordinates": {
            "latitude": 13.0167239,
            "longitude": 77.5962129
        }
    },
    {
        "name": "The Bangalore Education Soci",
        "coordinates": {
            "latitude": 12.999106,
            "longitude": 77.5686856
        }
    },
    {
        "name": "Vidyasagar Preschool -Hebbal",
        "coordinates": {
            "latitude": 13.0416384,
            "longitude": 77.5815516
        }
    },
    {
        "name": "Sophia High School",
        "coordinates": {
            "latitude": 12.9865446,
            "longitude": 77.5873326
        }
    },
    {
        "name": "Happy Feet for Kids, Sanjay Nagar",
        "coordinates": {
            "latitude": 13.039539,
            "longitude": 77.572609
        }
    },
    {
        "name": "National Public School",
        "coordinates": {
            "latitude": 13.0996697,
            "longitude": 77.5844021
        }
    },
    {
        "name": "Art Of Living Yoga and Meditation Center",
        "coordinates": {
            "latitude": 13.1042445,
            "longitude": 77.5713193
        }
    },
    {
        "name": "St Philomena's English School",
        "coordinates": {
            "latitude": 13.0617288,
            "longitude": 77.558689
        }
    },
    {
        "name": "Gnana Bodhini Primary School",
        "coordinates": {
            "latitude": 12.9261754,
            "longitude": 77.4943859
        }
    },
    {
        "name": "New Horizon Public School",
        "coordinates": {
            "latitude": 12.9170452,
            "longitude": 77.5178714
        }
    },
    {
        "name": "Shruthiranjani",
        "coordinates": {
            "latitude": 12.9233368,
            "longitude": 77.5068555
        }
    },
    {
        "name": "School for Self Mastery",
        "coordinates": {
            "latitude": 12.9428252,
            "longitude": 77.4934315
        }
    },
    {
        "name": "Dew Drops Academy",
        "coordinates": {
            "latitude": 12.9112583,
            "longitude": 77.5200033
        }
    },
    {
        "name": "Planet Kids",
        "coordinates": {
            "latitude": 12.9146792,
            "longitude": 77.5204666
        }
    },
    {
        "name": "Kidzen Preschool",
        "coordinates": {
            "latitude": 12.8909737,
            "longitude": 77.5592795
        }
    },
    {
        "name": "Srinidhi Public School",
        "coordinates": {
            "latitude": 12.882831,
            "longitude": 77.570393
        }
    },
    {
        "name": "VIBGYOR High School, Haralur | Cambridge School",
        "coordinates": {
            "latitude": 12.8990306,
            "longitude": 77.6570129
        }
    },
    {
        "name": "National Public School, HSR",
        "coordinates": {
            "latitude": 12.9165205,
            "longitude": 77.6429455
        }
    },
    {
        "name": "ORCHIDS The International School in Sarjapur Road",
        "coordinates": {
            "latitude": 12.9170635,
            "longitude": 77.6704478
        }
    },
    {
        "name": "New Horizon Gurukul",
        "coordinates": {
            "latitude": 12.9339933,
            "longitude": 77.6972706
        }
    },
    {
        "name": "Gnan Srishti School Of Excellence || Schools in HSR Layout, ICSE School in HSR Layout, ISC School in HSR Layout",
        "coordinates": {
            "latitude": 12.9123265,
            "longitude": 77.6452505
        }
    },
    {
        "name": "Fort High School",
        "coordinates": {
            "latitude": 12.958577,
            "longitude": 77.5735248
        }
    },
    {
        "name": "VIBGYOR High School, Electronic City | ICSE School",
        "coordinates": {
            "latitude": 12.850531,
            "longitude": 77.6398567
        }
    },
    {
        "name": "Chinmaya Vidyalaya",
        "coordinates": {
            "latitude": 12.934905,
            "longitude": 77.6277674
        }
    },
    {
        "name": "EISB - Ebenezer International School",
        "coordinates": {
            "latitude": 12.8402484,
            "longitude": 77.7077078
        }
    },
    {
        "name": "My School Of Rock - Music, Guitar, Ukulele, Keyboard, Drums",
        "coordinates": {
            "latitude": 12.9408913,
            "longitude": 77.619639
        }
    },
    {
        "name": "SVET",
        "coordinates": {
            "latitude": 12.7827476,
            "longitude": 77.7579039
        }
    },
    {
        "name": "St. Joseph Matriculation Hr. Sec. School",
        "coordinates": {
            "latitude": 12.7467819,
            "longitude": 77.8069727
        }
    },
    {
        "name": "BRS Global School | Best CBSE School | Attibele-Sarjapur Road",
        "coordinates": {
            "latitude": 12.8069903,
            "longitude": 77.7808106
        }
    },
    {
        "name": "Attibele Public School",
        "coordinates": {
            "latitude": 12.784273,
            "longitude": 77.7686336
        }
    },
    {
        "name": "Trillium Children's Center",
        "coordinates": {
            "latitude": 12.8322879,
            "longitude": 77.7861994
        }
    },
    {
        "name": "Kids Square",
        "coordinates": {
            "latitude": 12.7743367,
            "longitude": 77.7658549
        }
    },
    {
        "name": "Maharishi Vidya Mandir HOSUR",
        "coordinates": {
            "latitude": 12.7704388,
            "longitude": 77.8015925
        }
    },
    {
        "name": "St.Philomena's Public School",
        "coordinates": {
            "latitude": 12.8366412,
            "longitude": 77.7685317
        }
    },
    {
        "name": "St. Philomena's English School",
        "coordinates": {
            "latitude": 12.8521571,
            "longitude": 77.7814285
        }
    },
    {
        "name": "Gregorian Academy",
        "coordinates": {
            "latitude": 12.7513934,
            "longitude": 77.8041388
        }
    },
    {
        "name": "Diamond Stone International School",
        "coordinates": {
            "latitude": 12.774588,
            "longitude": 77.832262
        }
    },
    {
        "name": "Kenosis Foundation - School of Being",
        "coordinates": {
            "latitude": 12.8028513,
            "longitude": 77.7309185
        }
    },
    {
        "name": "TIME Kids",
        "coordinates": {
            "latitude": 12.7453565,
            "longitude": 77.8034219
        }
    },
    {
        "name": "Open Arms International School",
        "coordinates": {
            "latitude": 12.7859647,
            "longitude": 77.8449617
        }
    },
    {
        "name": "Government Lower Primary School Gopasandra",
        "coordinates": {
            "latitude": 12.844941,
            "longitude": 77.7433338
        }
    },
    {
        "name": "Green Dot International School BANDAPURA",
        "coordinates": {
            "latitude": 12.7794925,
            "longitude": 77.7271859
        }
    },
    {
        "name": "St Joseph's Academy",
        "coordinates": {
            "latitude": 12.7451859,
            "longitude": 77.8130857
        }
    },
    {
        "name": "MD FAROOQ",
        "coordinates": {
            "latitude": 13.172965,
            "longitude": 77.634518
        }
    },
    {
        "name": "G HPS Bhatramarenahalli",
        "coordinates": {
            "latitude": 13.1662592,
            "longitude": 77.7370704
        }
    },
    {
        "name": "MRF SHOWROOM",
        "coordinates": {
            "latitude": 13.1371434,
            "longitude": 77.743019
        }
    },
    {
        "name": "Maruthi Vidyalaya CBSE",
        "coordinates": {
            "latitude": 13.0850018,
            "longitude": 77.6923674
        }
    },
    {
        "name": "Harward Institute of Science and Management",
        "coordinates": {
            "latitude": 13.0708171,
            "longitude": 77.4013403
        }
    },
    {
        "name": "Government Lower Primary School Bhattarahalli",
        "coordinates": {
            "latitude": 13.0383984,
            "longitude": 77.3499604
        }
    },
    {
        "name": "Government Lower Primary School Shivanapura",
        "coordinates": {
            "latitude": 13.0520227,
            "longitude": 77.4214278
        }
    },
    {
        "name": "Government Lower Primary School Uttasipalya",
        "coordinates": {
            "latitude": 13.071701,
            "longitude": 77.3973371
        }
    },
    {
        "name": "Royal International Public School",
        "coordinates": {
            "latitude": 13.0760646,
            "longitude": 77.398343
        }
    },
    {
        "name": "G Hps Gejjagadahalli",
        "coordinates": {
            "latitude": 13.0592989,
            "longitude": 77.425732
        }
    },
    {
        "name": "Government Lower Primary School Jodinarayanapura",
        "coordinates": {
            "latitude": 12.9835071,
            "longitude": 77.4017484
        }
    },
    {
        "name": "Government Lower Primary School Thattekere",
        "coordinates": {
            "latitude": 12.9834909,
            "longitude": 77.401745
        }
    },
    {
        "name": "Government Higher Primary School Yantaganahalli",
        "coordinates": {
            "latitude": 13.063142,
            "longitude": 77.3461261
        }
    },
    {
        "name": "Kidzee Arashinakunte Dasanapura",
        "coordinates": {
            "latitude": 13.0760345,
            "longitude": 77.4277629
        }
    },
    {
        "name": "Government Lower Primary School, Bavikere",
        "coordinates": {
            "latitude": 13.0899313,
            "longitude": 77.3761762
        }
    },
    {
        "name": "Government Lower Primary School Kodappanahalli",
        "coordinates": {
            "latitude": 13.0873631,
            "longitude": 77.4110386
        }
    },
    {
        "name": "Government Upper Primary School",
        "coordinates": {
            "latitude": 13.0874104,
            "longitude": 77.4110083
        }
    },
    {
        "name": "G LPS Kenchanahalli",
        "coordinates": {
            "latitude": 13.0874193,
            "longitude": 77.4110065
        }
    },
    {
        "name": "Bylanjaneya High School",
        "coordinates": {
            "latitude": 13.0874193,
            "longitude": 77.4110065
        }
    },
    {
        "name": "Govt Lower Primary School Yarranapalya",
        "coordinates": {
            "latitude": 13.0874193,
            "longitude": 77.4110065
        }
    },
    {
        "name": "Government Lower Primary School Thavarekere",
        "coordinates": {
            "latitude": 12.9712333,
            "longitude": 77.3997665
        }
    },
    {
        "name": "Harward Group Of Institutions",
        "coordinates": {
            "latitude": 13.0725762,
            "longitude": 77.4402642
        }
    },
    {
        "name": "Govt Lower Primary School Rudranapalya",
        "coordinates": {
            "latitude": 13.091206,
            "longitude": 77.4002135
        }
    },
    {
        "name": "Harsha Institutions",
        "coordinates": {
            "latitude": 13.0930623,
            "longitude": 77.3962554
        }
    },
    {
        "name": "Government Lower Primary School Chinnakempanahalli",
        "coordinates": {
            "latitude": 13.265011,
            "longitude": 77.6106513
        }
    },
    {
        "name": "Rakum School For Blind & Gowshala",
        "coordinates": {
            "latitude": 13.1958409,
            "longitude": 77.5895681
        }
    },
    {
        "name": "Government Lower Primary School Chikkobanahalli",
        "coordinates": {
            "latitude": 13.2860455,
            "longitude": 77.6063541
        }
    },
    {
        "name": "Vihaan Public School",
        "coordinates": {
            "latitude": 13.2779196,
            "longitude": 77.6305736
        }
    },
    {
        "name": "Government Lower Primary School Kempalingapura",
        "coordinates": {
            "latitude": 13.2316389,
            "longitude": 77.6521808
        }
    },
    {
        "name": "K B M Blossom Public School",
        "coordinates": {
            "latitude": 13.2155727,
            "longitude": 77.5527408
        }
    },
    {
        "name": "G Hps Sadahalli",
        "coordinates": {
            "latitude": 13.2111905,
            "longitude": 77.6460927
        }
    },
    {
        "name": "Glps Hosahudya",
        "coordinates": {
            "latitude": 13.2330109,
            "longitude": 77.5360537
        }
    },
    {
        "name": "Government Lower Primary School Jinkebachhahalli",
        "coordinates": {
            "latitude": 13.2464477,
            "longitude": 77.5326848
        }
    },
    {
        "name": "NAFL-North Urbana",
        "coordinates": {
            "latitude": 13.2061135,
            "longitude": 77.6615995
        }
    },
    {
        "name": "Government Higher Primary School Doddatumkuru",
        "coordinates": {
            "latitude": 13.2259346,
            "longitude": 77.5320189
        }
    },
    {
        "name": "Kidzee closed",
        "coordinates": {
            "latitude": 13.176065,
            "longitude": 77.5696338
        }
    },
    {
        "name": "Government Higher Primary School Aruvanahalli",
        "coordinates": {
            "latitude": 13.3040232,
            "longitude": 77.6339633
        }
    },
    {
        "name": "Government Lower Primary School Nellukunte",
        "coordinates": {
            "latitude": 13.2164353,
            "longitude": 77.5296964
        }
    },
    {
        "name": "EuroKids Pre-School Rajanukunte, Best Kindergarten in Bangalore",
        "coordinates": {
            "latitude": 13.1756603,
            "longitude": 77.5610792
        }
    },
    {
        "name": "ADITYA PUBLIC SCHOOL",
        "coordinates": {
            "latitude": 13.2842158,
            "longitude": 77.5366948
        }
    },
    {
        "name": "Nalanda High School",
        "coordinates": {
            "latitude": 13.2871886,
            "longitude": 77.5387738
        }
    },
    {
        "name": "Aman CENTRE",
        "coordinates": {
            "latitude": 13.1709528,
            "longitude": 77.5603906
        }
    },
    {
        "name": "MSV Public School",
        "coordinates": {
            "latitude": 13.2827085,
            "longitude": 77.5329175
        }
    },
    {
        "name": "Government Lower Primary School Kasaghatta",
        "coordinates": {
            "latitude": 13.3194716,
            "longitude": 77.6160893
        }
    },
    {
        "name": "G Lps Chikka Muddenahalli",
        "coordinates": {
            "latitude": 13.3181345,
            "longitude": 77.5963272
        }
    },
    {
        "name": "G Lps Muddanayakanahalli",
        "coordinates": {
            "latitude": 13.2969288,
            "longitude": 77.6801828
        }
    },
    {
        "name": "Govt Higher Primary School Kesturu",
        "coordinates": {
            "latitude": 13.2927247,
            "longitude": 77.5389532
        }
    },
    {
        "name": "Government Lower Primary School Gandaragulipura",
        "coordinates": {
            "latitude": 13.2927263,
            "longitude": 77.538907
        }
    },
    {
        "name": "Urban Raga, - Performing Arts & Music Learning Centre",
        "coordinates": {
            "latitude": 12.9560292,
            "longitude": 77.7164041
        }
    },
    {
        "name": "KLAY Whitefield (Brookfield Main Road) - Preschools and Daycare",
        "coordinates": {
            "latitude": 12.982945,
            "longitude": 77.7081089
        }
    },
    {
        "name": "Art Classes",
        "coordinates": {
            "latitude": 12.9218489,
            "longitude": 77.6759777
        }
    },
    {
        "name": "Akash Institutions",
        "coordinates": {
            "latitude": 13.2335548,
            "longitude": 77.7096246
        }
    },
    {
        "name": "G HPS Channarayapatna",
        "coordinates": {
            "latitude": 13.2417155,
            "longitude": 77.7137306
        }
    },
    {
        "name": "Government Higher Primary School Sunnaghatta School",
        "coordinates": {
            "latitude": 13.2417155,
            "longitude": 77.7137306
        }
    },
    {
        "name": "Kendriya Vidyalaya High School",
        "coordinates": {
            "latitude": 13.2417155,
            "longitude": 77.7137306
        }
    },
    {
        "name": "Government Lower Primary School Chowdappanahalli",
        "coordinates": {
            "latitude": 13.2417155,
            "longitude": 77.7137306
        }
    },
    {
        "name": "Government Higher Primary School Beerasandra",
        "coordinates": {
            "latitude": 13.2417155,
            "longitude": 77.7137306
        }
    },
    {
        "name": "EuroKids Pre-School Devanahalli",
        "coordinates": {
            "latitude": 13.241907,
            "longitude": 77.7182351
        }
    },
    {
        "name": "Chinmayee Public School",
        "coordinates": {
            "latitude": 13.2425455,
            "longitude": 77.7217836
        }
    },
    {
        "name": "Aditya National Public School",
        "coordinates": {
            "latitude": 13.1036407,
            "longitude": 77.6123812
        }
    },
    {
        "name": "Kidzee School",
        "coordinates": {
            "latitude": 13.1207244,
            "longitude": 77.6156758
        }
    },
    {
        "name": "Bharath English High School",
        "coordinates": {
            "latitude": 13.1051613,
            "longitude": 77.5940212
        }
    },
    {
        "name": "gnana deepa academy residential school",
        "coordinates": {
            "latitude": 13.2873707,
            "longitude": 77.7066827
        }
    },
    {
        "name": "Government Lower Primary School Lithore",
        "coordinates": {
            "latitude": 13.2891856,
            "longitude": 77.6994198
        }
    },
    {
        "name": "Government Higher Primary School Juttanahalli",
        "coordinates": {
            "latitude": 13.2891856,
            "longitude": 77.6994198
        }
    },
    {
        "name": "Government Higher Primary School Venkatagirikote",
        "coordinates": {
            "latitude": 13.2891856,
            "longitude": 77.6994198
        }
    },
    {
        "name": "Anantha Vidyaniketana",
        "coordinates": {
            "latitude": 13.2799501,
            "longitude": 77.7282668
        }
    },
    {
        "name": "Government Lower Primary School Sonnamaranahalli",
        "coordinates": {
            "latitude": 13.3325515,
            "longitude": 77.6470226
        }
    },
    {
        "name": "Government Primary School Gokare",
        "coordinates": {
            "latitude": 13.2479371,
            "longitude": 77.7251781
        }
    },
    {
        "name": "Sri Ram Public School, Sarjapura",
        "coordinates": {
            "latitude": 12.8648673,
            "longitude": 77.7867718
        }
    },
    {
        "name": "UNIFIT SPORTS FOUNDATION",
        "coordinates": {
            "latitude": 12.8837558,
            "longitude": 77.7514967
        }
    },
    {
        "name": "New Oxford School, Sarjapura",
        "coordinates": {
            "latitude": 12.8718502,
            "longitude": 77.7983276
        }
    },
    {
        "name": "New Oxford High School",
        "coordinates": {
            "latitude": 12.8675248,
            "longitude": 77.7970326
        }
    },
    {
        "name": "Oakridge International School Bangalore",
        "coordinates": {
            "latitude": 12.8875405,
            "longitude": 77.7518236
        }
    },
    {
        "name": "Cambridge Montessori Preschool DOMMASANDRA",
        "coordinates": {
            "latitude": 12.8893635,
            "longitude": 77.7498107
        }
    },
    {
        "name": "G Hps Sulikunte",
        "coordinates": {
            "latitude": 12.886986,
            "longitude": 77.7360207
        }
    },
    {
        "name": "Rhiza Academy",
        "coordinates": {
            "latitude": 13.083807,
            "longitude": 77.553835
        }
    },
    {
        "name": "St. Chaitanya Education Society (R) Oriental English High School",
        "coordinates": {
            "latitude": 13.0861329,
            "longitude": 77.5569298
        }
    },
    {
        "name": "BEL High School",
        "coordinates": {
            "latitude": 13.0489457,
            "longitude": 77.555134
        }
    },
    {
        "name": "Sams,s Academy",
        "coordinates": {
            "latitude": 13.0697137,
            "longitude": 77.576771
        }
    },
    {
        "name": "R.T.Nagar Group Of Institutions",
        "coordinates": {
            "latitude": 13.153496,
            "longitude": 77.5679671
        }
    },
    {
        "name": "Rajarajeshwari High School",
        "coordinates": {
            "latitude": 13.0610487,
            "longitude": 77.5541015
        }
    },
    {
        "name": "Mathru Educational Trust for the Blind",
        "coordinates": {
            "latitude": 13.1044707,
            "longitude": 77.570913
        }
    },
    {
        "name": "Government Lower Primary School Thellohalli",
        "coordinates": {
            "latitude": 13.2371602,
            "longitude": 77.7366243
        }
    },
    {
        "name": "Nurture Montessori",
        "coordinates": {
            "latitude": 12.8842233,
            "longitude": 77.5457589
        }
    },
    {
        "name": "Veda Agama Samskrutha Maha Patashala, Sri Sri Gurukul",
        "coordinates": {
            "latitude": 12.8283596,
            "longitude": 77.5028317
        }
    },
    {
        "name": "Apoorva Center For Autism",
        "coordinates": {
            "latitude": 12.8964143,
            "longitude": 77.5611348
        }
    },
    {
        "name": "Kids Space Academy, Preschool and NTT | Best Preschool In Uttarahalli",
        "coordinates": {
            "latitude": 12.9131841,
            "longitude": 77.5464748
        }
    },
    {
        "name": "Sujay INSC",
        "coordinates": {
            "latitude": 15.3052644,
            "longitude": 76.5073041
        }
    },
    {
        "name": "Srikari Public School",
        "coordinates": {
            "latitude": 15.2835735,
            "longitude": 76.4127176
        }
    },
    {
        "name": "Anikethana OBC Hostel",
        "coordinates": {
            "latitude": 15.2812899,
            "longitude": 76.4886316
        }
    },
    {
        "name": "Shrishail Guest House Hampi University",
        "coordinates": {
            "latitude": 15.278664,
            "longitude": 76.4922878
        }
    },
    {
        "name": "Depertment of HISTORY",
        "coordinates": {
            "latitude": 15.2838539,
            "longitude": 76.4891739
        }
    },
    {
        "name": "\u0c95\u0ca8\u0ccd\u0ca8\u0ca1 \u0cb5\u0cbf\u0cb6\u0ccd\u0cb5\u0cb5\u0cbf\u0ca6\u0ccd\u0caf\u0cbe\u0cb2\u0caf \u0cb8.\u0cae\u0cbe.\u0cb9\u0cbf.\u0caa\u0ccd\u0cb0\u0cbe\u0ca5\u0cae\u0cbf\u0c95 \u0cb6\u0cbe\u0cb2\u0cc6 \u0c95\u0cae\u0cb2\u0cbe\u0caa\u0cc1\u0cb0",
        "coordinates": {
            "latitude": 15.2886638,
            "longitude": 76.4820014
        }
    },
    {
        "name": "Publication Wing-Prasaranga",
        "coordinates": {
            "latitude": 15.2854338,
            "longitude": 76.4910991
        }
    },
    {
        "name": "\u0ca8\u0cb5\u0cb0\u0c82\u0c97 \u0cac\u0caf\u0cb2\u0cc1 \u0cae\u0c82\u0c9f\u0caa",
        "coordinates": {
            "latitude": 15.2876602,
            "longitude": 76.4890946
        }
    },
    {
        "name": "shreyas n kambar residence.",
        "coordinates": {
            "latitude": 15.2913526,
            "longitude": 76.4821895
        }
    },
    {
        "name": "Govt. Primary School KERETHANDA",
        "coordinates": {
            "latitude": 15.2934106,
            "longitude": 76.4740522
        }
    },
    {
        "name": "MOULNA AZAD MODEL SCHOOL HALLIKERI",
        "coordinates": {
            "latitude": 15.2964319,
            "longitude": 76.4857013
        }
    },
    {
        "name": "Sri Siddeshwara School",
        "coordinates": {
            "latitude": 15.3020192,
            "longitude": 76.4781344
        }
    },
    {
        "name": "Hpt And Tavarghata",
        "coordinates": {
            "latitude": 15.3028782,
            "longitude": 76.479271
        }
    },
    {
        "name": "\u0c85\u0c82\u0c97\u0ca8\u0cb5\u0cbe\u0ca1\u0cbf \u0c95\u0cc7\u0c82\u0ca6\u0ccd\u0cb0 -3",
        "coordinates": {
            "latitude": 15.3029631,
            "longitude": 76.47884
        }
    },
    {
        "name": "Ramakrishna English Medium School",
        "coordinates": {
            "latitude": 15.3052864,
            "longitude": 76.4745748
        }
    },
    {
        "name": "Government Model Higher Primary School",
        "coordinates": {
            "latitude": 15.3052017,
            "longitude": 76.4739333
        }
    },
    {
        "name": "JC Higher Primary School \u0c9c\u0cc2\u0c9f\u0cc2\u0cb0\u0ccd \u0c9a\u0c82\u0ca6\u0ccd\u0cb0\u0caa\u0ccd\u0caa \u0cb9\u0cbf\u0cb0\u0cbf\u0caf \u0caa\u0ccd\u0cb0\u0cbe\u0ca5\u0cae\u0cbf\u0c95 \u0cb6\u0cbe\u0cb2\u0cc6",
        "coordinates": {
            "latitude": 15.3052547,
            "longitude": 76.4739948
        }
    },
    {
        "name": "Late hafeez khadar vali madrassa",
        "coordinates": {
            "latitude": 15.3057654,
            "longitude": 76.4761776
        }
    },
    {
        "name": "Sri Kalmat computers",
        "coordinates": {
            "latitude": 15.3059422,
            "longitude": 76.4754563
        }
    },
    {
        "name": "Sri Vinayaka Nursery Kannada & English Medium School",
        "coordinates": {
            "latitude": 15.3060166,
            "longitude": 76.4743485
        }
    },
    {
        "name": "The Scholars Montessori",
        "coordinates": {
            "latitude": 12.9072884,
            "longitude": 77.6958314
        }
    },
    {
        "name": "Little Millennium PreSchool and DayCare Haralur Road",
        "coordinates": {
            "latitude": 12.9151634,
            "longitude": 77.6683377
        }
    },
    {
        "name": "Government Lower Primary School Gobbaragunte",
        "coordinates": {
            "latitude": 13.2916155,
            "longitude": 77.7344026
        }
    },
    {
        "name": "Princeton Public School",
        "coordinates": {
            "latitude": 13.0276302,
            "longitude": 77.7147293
        }
    },
    {
        "name": "Hello Kids - Rising Star Preschool",
        "coordinates": {
            "latitude": 13.0257893,
            "longitude": 77.7167906
        }
    },
    {
        "name": "Gopalan Sports Center",
        "coordinates": {
            "latitude": 12.984667,
            "longitude": 77.7162782
        }
    },
    {
        "name": "Swami Vivekananda Vidya Kendra",
        "coordinates": {
            "latitude": 13.0683342,
            "longitude": 77.7915139
        }
    },
    {
        "name": "Prajval Vidyanikethan School",
        "coordinates": {
            "latitude": 12.9805114,
            "longitude": 77.7334428
        }
    },
    {
        "name": "Little Champ Gurukulam Pre School",
        "coordinates": {
            "latitude": 13.012387,
            "longitude": 77.7011932
        }
    },
    {
        "name": "Maple Bear Canadian Preschool and Daycare",
        "coordinates": {
            "latitude": 12.9726782,
            "longitude": 77.750517
        }
    },
    {
        "name": "Brilliant National School",
        "coordinates": {
            "latitude": 13.0708494,
            "longitude": 77.7289296
        }
    },
    {
        "name": "Al-Ameen Residential Schools",
        "coordinates": {
            "latitude": 13.0687221,
            "longitude": 77.8089588
        }
    },
    {
        "name": "Capstone High CBSE School",
        "coordinates": {
            "latitude": 13.0822256,
            "longitude": 77.8158211
        }
    },
    {
        "name": "Government Lower Primary School Chowluthota",
        "coordinates": {
            "latitude": 13.0932918,
            "longitude": 77.7929768
        }
    },
    {
        "name": "Government Higher Primary School Karahalli",
        "coordinates": {
            "latitude": 13.105882,
            "longitude": 77.7888541
        }
    },
    {
        "name": "Gurushree Group of Institutions",
        "coordinates": {
            "latitude": 13.1158655,
            "longitude": 77.8370289
        }
    },
    {
        "name": "Government Lower Primary School Pillagumpe",
        "coordinates": {
            "latitude": 13.11602,
            "longitude": 77.837132
        }
    },
    {
        "name": "Global Residential School Bangalore",
        "coordinates": {
            "latitude": 13.1148017,
            "longitude": 77.8386283
        }
    },
    {
        "name": "G LPS Cholappanahalli",
        "coordinates": {
            "latitude": 13.1188473,
            "longitude": 77.8381576
        }
    },
    {
        "name": "GLPS Muniswamappa Layout",
        "coordinates": {
            "latitude": 13.0700097,
            "longitude": 77.8000009
        }
    },
    {
        "name": "G Lps Lingadheemallasadnra",
        "coordinates": {
            "latitude": 13.0700097,
            "longitude": 77.8000009
        }
    },
    {
        "name": "Government Higher Primary School Narayanakere",
        "coordinates": {
            "latitude": 13.0700097,
            "longitude": 77.8000009
        }
    },
    {
        "name": "Government Higher Primary School Karapanahalli",
        "coordinates": {
            "latitude": 13.0700097,
            "longitude": 77.8000009
        }
    },
    {
        "name": "Government Higher Primary School Chikkanallala",
        "coordinates": {
            "latitude": 13.0700097,
            "longitude": 77.8000009
        }
    },
    {
        "name": "Pinnacle International School, Hoskote",
        "coordinates": {
            "latitude": 13.0676067,
            "longitude": 77.8115375
        }
    },
    {
        "name": "KIDZEE, PRE SCHOOL, HOSKOTE",
        "coordinates": {
            "latitude": 13.067933,
            "longitude": 77.787406
        }
    },
    {
        "name": "Government Higher Primary School Kannurahalli",
        "coordinates": {
            "latitude": 13.0604469,
            "longitude": 77.8060992
        }
    },
    {
        "name": "Government HIigher Primary School Sonnahallipura",
        "coordinates": {
            "latitude": 13.136,
            "longitude": 77.7887435
        }
    },
    {
        "name": "Nebula e-kids Pre-School",
        "coordinates": {
            "latitude": 13.0731852,
            "longitude": 77.778285
        }
    },
    {
        "name": "Citizens' English School",
        "coordinates": {
            "latitude": 13.0700833,
            "longitude": 77.7806255
        }
    },
    {
        "name": "ORCHIDS The International School in Nagarbhavi",
        "coordinates": {
            "latitude": 12.9768896,
            "longitude": 77.5076514
        }
    },
    {
        "name": "Carmel High School",
        "coordinates": {
            "latitude": 12.9885636,
            "longitude": 77.5443423
        }
    },
    {
        "name": "St Theresa Primary & High School",
        "coordinates": {
            "latitude": 13.0553494,
            "longitude": 77.5072239
        }
    },
    {
        "name": "St.Claret School",
        "coordinates": {
            "latitude": 13.0435553,
            "longitude": 77.5451598
        }
    },
    {
        "name": "The Great Eastern International Public School",
        "coordinates": {
            "latitude": 12.9982123,
            "longitude": 77.484405
        }
    },
    {
        "name": "Soundarya School",
        "coordinates": {
            "latitude": 13.0492086,
            "longitude": 77.5061707
        }
    },
    {
        "name": "Sree Ayyappa Education Centre (CBSE)",
        "coordinates": {
            "latitude": 13.0741808,
            "longitude": 77.517546
        }
    },
    {
        "name": "Gurukulam Kidzee Preschool and Mathru Day Care ( Jeevan Foundation)",
        "coordinates": {
            "latitude": 13.0140024,
            "longitude": 77.5340431
        }
    },
    {
        "name": "Shushruti Vidya Samste",
        "coordinates": {
            "latitude": 13.0074913,
            "longitude": 77.4981361
        }
    },
    {
        "name": "Our Little Wonderz Best Pre School",
        "coordinates": {
            "latitude": 13.0527199,
            "longitude": 77.5069334
        }
    },
    {
        "name": "Gangothri International Public School",
        "coordinates": {
            "latitude": 12.9838977,
            "longitude": 77.5036124
        }
    },
    {
        "name": "St. Mary's Convent/High School & St.Mary's Public School",
        "coordinates": {
            "latitude": 13.0473969,
            "longitude": 77.5134598
        }
    },
    {
        "name": "KAMS",
        "coordinates": {
            "latitude": 13.0562326,
            "longitude": 77.5067617
        }
    },
    {
        "name": "EuroKids Pre-School Brookefield Kundalahalli Marathalli",
        "coordinates": {
            "latitude": 12.9660521,
            "longitude": 77.713802
        }
    },
    {
        "name": "Endeavour's International School",
        "coordinates": {
            "latitude": 12.8843155,
            "longitude": 77.8192178
        }
    },
    {
        "name": "The Baanyan Tree Daycare",
        "coordinates": {
            "latitude": 12.8861749,
            "longitude": 77.8169022
        }
    },
    {
        "name": "Government Lower Primary School Thiruvaranga",
        "coordinates": {
            "latitude": 12.8853165,
            "longitude": 77.8338694
        }
    },
    {
        "name": "Treamis Schools",
        "coordinates": {
            "latitude": 12.8174201,
            "longitude": 77.650748
        }
    },
    {
        "name": "Kidzee",
        "coordinates": {
            "latitude": 12.8483137,
            "longitude": 77.652136
        }
    },
    {
        "name": "De Sales Academy",
        "coordinates": {
            "latitude": 12.7986555,
            "longitude": 77.7124645
        }
    },
    {
        "name": "St. Philomena's High School",
        "coordinates": {
            "latitude": 12.7977629,
            "longitude": 77.7064347
        }
    },
    {
        "name": "KLAY Electronic City, Phase 1 - Preschools and Daycare",
        "coordinates": {
            "latitude": 12.8405912,
            "longitude": 77.6626097
        }
    },
    {
        "name": "Vidyarambh International Preschool & Childcare Center Ecity",
        "coordinates": {
            "latitude": 12.841456,
            "longitude": 77.647552
        }
    },
    {
        "name": "B.T.L. High School",
        "coordinates": {
            "latitude": 12.807796,
            "longitude": 77.6936277
        }
    },
    {
        "name": "Swamy Vivekananda School ICSE",
        "coordinates": {
            "latitude": 12.8001641,
            "longitude": 77.7052456
        }
    },
    {
        "name": "Anuhya Summer Camp",
        "coordinates": {
            "latitude": 12.8542662,
            "longitude": 77.667017
        }
    },
    {
        "name": "Juzzkidz Daycare And Playschool",
        "coordinates": {
            "latitude": 12.8392396,
            "longitude": 77.6505246
        }
    },
    {
        "name": "BS Carmel School",
        "coordinates": {
            "latitude": 12.8012844,
            "longitude": 77.689539
        }
    },
    {
        "name": "Little Monte School",
        "coordinates": {
            "latitude": 12.7891679,
            "longitude": 77.7014127
        }
    },
    {
        "name": "Brundhavana.org",
        "coordinates": {
            "latitude": 12.7916656,
            "longitude": 77.7027084
        }
    },
    {
        "name": "KIDZEE Suryacity.",
        "coordinates": {
            "latitude": 12.793216,
            "longitude": 77.7029846
        }
    },
    {
        "name": "SHEMROCK GENESIS",
        "coordinates": {
            "latitude": 12.793471,
            "longitude": 77.7035191
        }
    },
    {
        "name": "Schneider Electric Training Centre India",
        "coordinates": {
            "latitude": 12.7971761,
            "longitude": 77.6633037
        }
    },
    {
        "name": "Edify School Electronic City",
        "coordinates": {
            "latitude": 12.7722375,
            "longitude": 77.6930216
        }
    },
    {
        "name": "Sparrows",
        "coordinates": {
            "latitude": 12.9608074,
            "longitude": 77.7183301
        }
    },
    {
        "name": "Kinder Craft Play School",
        "coordinates": {
            "latitude": 12.9681991,
            "longitude": 77.7040492
        }
    },
    {
        "name": "G HPS Naganayakanahalli",
        "coordinates": {
            "latitude": 13.2333985,
            "longitude": 77.7743036
        }
    },
    {
        "name": "G Lps Mallenahalli",
        "coordinates": {
            "latitude": 13.1854498,
            "longitude": 77.7622675
        }
    },
    {
        "name": "Government Higher Primary School Mallepura",
        "coordinates": {
            "latitude": 13.206129,
            "longitude": 77.7788128
        }
    },
    {
        "name": "G Hps Obalapura",
        "coordinates": {
            "latitude": 12.9572024,
            "longitude": 77.8295089
        }
    },
    {
        "name": "Government Higher Primary School, Devanagundi",
        "coordinates": {
            "latitude": 12.9604156,
            "longitude": 77.8381576
        }
    },
    {
        "name": "Government Primary School Anugondanahalli",
        "coordinates": {
            "latitude": 12.9556582,
            "longitude": 77.8155302
        }
    },
    {
        "name": "GREEN EDEN PUBLIC SCHOOL",
        "coordinates": {
            "latitude": 12.9637736,
            "longitude": 77.8444488
        }
    },
    {
        "name": "Darul Uloom Sabeelul Ansar",
        "coordinates": {
            "latitude": 12.9517454,
            "longitude": 77.8183615
        }
    },
    {
        "name": "VAGATA GOVT MIDDLE SCHOOL",
        "coordinates": {
            "latitude": 13.0235405,
            "longitude": 77.8357192
        }
    },
    {
        "name": "Government Higher Primary School Honachanahalli",
        "coordinates": {
            "latitude": 13.0178668,
            "longitude": 77.8553131
        }
    },
    {
        "name": "Sri Devaraj Urs International Residential School",
        "coordinates": {
            "latitude": 13.3004079,
            "longitude": 77.5231949
        }
    },
    {
        "name": "Government Lower Primary School Benachihatti",
        "coordinates": {
            "latitude": 13.2927263,
            "longitude": 77.538907
        }
    },
    {
        "name": "Government Lower Primary School Madeshwara",
        "coordinates": {
            "latitude": 13.2927263,
            "longitude": 77.538907
        }
    },
    {
        "name": "Government Lower Primary School Obadenahalli",
        "coordinates": {
            "latitude": 13.2927263,
            "longitude": 77.538907
        }
    },
    {
        "name": "I Play I Learn",
        "coordinates": {
            "latitude": 13.2927263,
            "longitude": 77.5389069
        }
    },
    {
        "name": "Government Upper Primary School Isthuru",
        "coordinates": {
            "latitude": 13.2927482,
            "longitude": 77.5389077
        }
    },
    {
        "name": "Carmel Jyothi High School",
        "coordinates": {
            "latitude": 13.3069202,
            "longitude": 77.5384146
        }
    },
    {
        "name": "vnpuc college",
        "coordinates": {
            "latitude": 13.3060697,
            "longitude": 77.5315363
        }
    },
    {
        "name": "Government Lower Primary School Hasanaghatta",
        "coordinates": {
            "latitude": 13.325177,
            "longitude": 77.5253356
        }
    },
    {
        "name": "Government Lower Primary School Chikka Tumkuru",
        "coordinates": {
            "latitude": 13.2563189,
            "longitude": 77.5203792
        }
    },
    {
        "name": "Government Primary School Aralumallige",
        "coordinates": {
            "latitude": 13.2739828,
            "longitude": 77.5069994
        }
    },
    {
        "name": "Radha Soami Satsang Beas, Aralamallige",
        "coordinates": {
            "latitude": 13.273857,
            "longitude": 77.5060588
        }
    },
    {
        "name": "Government Lower Primary School Maranagere",
        "coordinates": {
            "latitude": 12.8824697,
            "longitude": 77.8522785
        }
    },
    {
        "name": "SunKids - Play School, Montessori, Kindergarten",
        "coordinates": {
            "latitude": 12.9581146,
            "longitude": 77.7021624
        }
    },
    {
        "name": "Poola School",
        "coordinates": {
            "latitude": 13.1754098,
            "longitude": 77.5452273
        }
    },
    {
        "name": "NAVACHETHANA PUBLIC SCHOOL",
        "coordinates": {
            "latitude": 13.1503339,
            "longitude": 77.5634417
        }
    },
    {
        "name": "PODAR JUMBO KIDS - PRESCHOOL IN YELAHANKA, BANGALORE",
        "coordinates": {
            "latitude": 13.134958,
            "longitude": 77.589096
        }
    },
    {
        "name": "Bethany High Sarjapur",
        "coordinates": {
            "latitude": 12.8639028,
            "longitude": 77.7336704
        }
    },
    {
        "name": "Growing Wonders Montessori (Centre #2)",
        "coordinates": {
            "latitude": 12.9472363,
            "longitude": 77.5670253
        }
    },
    {
        "name": "Spurthy Global School",
        "coordinates": {
            "latitude": 12.7732189,
            "longitude": 77.7016918
        }
    },
    {
        "name": "Green Dot Montessori School",
        "coordinates": {
            "latitude": 12.8001153,
            "longitude": 77.7082729
        }
    },
    {
        "name": "CHRIS CANADIAN GLOBAL SCHOOL",
        "coordinates": {
            "latitude": 13.0601636,
            "longitude": 77.742681
        }
    },
    {
        "name": "Twinkle Kidz - Play school & Day care",
        "coordinates": {
            "latitude": 13.0782877,
            "longitude": 77.7371491
        }
    },
    {
        "name": "SRI JNANAGANGOTRI INTERNATIONAL SCHOOL",
        "coordinates": {
            "latitude": 13.0515945,
            "longitude": 77.7363553
        }
    },
    {
        "name": "T.I.M.E KIDS",
        "coordinates": {
            "latitude": 13.0788219,
            "longitude": 77.7219538
        }
    },
    {
        "name": "VIBGYOR High School Kadugodi | CBSE School",
        "coordinates": {
            "latitude": 13.046437,
            "longitude": 77.7608187
        }
    },
    {
        "name": "Sparsha Trust",
        "coordinates": {
            "latitude": 13.0601402,
            "longitude": 77.7754251
        }
    },
    {
        "name": "Narayana E-Techno School",
        "coordinates": {
            "latitude": 13.0447596,
            "longitude": 77.7609468
        }
    },
    {
        "name": "PARIPOORNA PRAJNA INTERNATIONAL SCHOOL | INTEGRATED PU College",
        "coordinates": {
            "latitude": 13.0428198,
            "longitude": 77.7358891
        }
    },
    {
        "name": "KLAY BGRT, Kadugodi - Preschools and Daycare",
        "coordinates": {
            "latitude": 13.039609,
            "longitude": 77.7591524
        }
    },
    {
        "name": "Oracle Public School",
        "coordinates": {
            "latitude": 13.0494102,
            "longitude": 77.7210642
        }
    },
    {
        "name": "EuroKids Hoskote, Best Kindergarten School in Bengaluru",
        "coordinates": {
            "latitude": 13.0628745,
            "longitude": 77.7851386
        }
    },
    {
        "name": "Ryan International School, Yelahanka, Bangalore - ICSE",
        "coordinates": {
            "latitude": 13.1238472,
            "longitude": 77.6014673
        }
    },
    {
        "name": "Little Elly Preschool and Daycare, jp nagar 5th Phase",
        "coordinates": {
            "latitude": 12.9040173,
            "longitude": 77.590284
        }
    },
    {
        "name": "MOMSOON IVF",
        "coordinates": {
            "latitude": 12.9306162,
            "longitude": 77.5824973
        }
    },
    {
        "name": "Government Lower Primary School Gejjagadahallipalya",
        "coordinates": {
            "latitude": 13.2364284,
            "longitude": 77.4902727
        }
    },
    {
        "name": "V Kids",
        "coordinates": {
            "latitude": 13.069861,
            "longitude": 77.6393321
        }
    },
    {
        "name": "Japanese Language School",
        "coordinates": {
            "latitude": 12.9929957,
            "longitude": 77.5863687
        }
    },
    {
        "name": "res convent",
        "coordinates": {
            "latitude": 12.9848219,
            "longitude": 77.5258666
        }
    },
    {
        "name": "EuroKids Pre-School In Mathikere, Best Preschool In Mathikere",
        "coordinates": {
            "latitude": 13.0305113,
            "longitude": 77.5612914
        }
    },
    {
        "name": "East West Public School",
        "coordinates": {
            "latitude": 13.0078578,
            "longitude": 77.5451453
        }
    },
    {
        "name": "Vihangam Yoga Gaushala",
        "coordinates": {
            "latitude": 13.1716553,
            "longitude": 77.5225139
        }
    },
    {
        "name": "Khel Preschool",
        "coordinates": {
            "latitude": 12.9708403,
            "longitude": 77.7505841
        }
    },
    {
        "name": "Bluebell Public School",
        "coordinates": {
            "latitude": 12.8721505,
            "longitude": 77.6593572
        }
    },
    {
        "name": "Prathama Montessori",
        "coordinates": {
            "latitude": 12.8765395,
            "longitude": 77.67447
        }
    },
    {
        "name": "GVS English school",
        "coordinates": {
            "latitude": 12.8669168,
            "longitude": 77.6611277
        }
    },
    {
        "name": "MM English High School",
        "coordinates": {
            "latitude": 12.8546723,
            "longitude": 77.659242
        }
    },
    {
        "name": "Frank Public School",
        "coordinates": {
            "latitude": 12.905281,
            "longitude": 77.5799615
        }
    },
    {
        "name": "Hive Preschool and Day Care",
        "coordinates": {
            "latitude": 12.9124227,
            "longitude": 77.6390611
        }
    }
]